[
  {
    "name": "乐乐茶",
    "area": "工业园区",
    "cuisine": "面包甜点",
    "pricerange": "便宜",
    "metro_station": "是",
    "per_capita_consumption": "44元",
    "address": "星港街苏州中心商场北区B1层",
    "phone_number": "0512-66363836",
    "score": 4.5,
    "business_hours": "周一至周日 10:00-22:00",
    "dishes": "星空流沙软包"
  },
  {
    "name": "苏逅咖啡·花园餐厅",
    "area": "吴中区",
    "cuisine": "面包甜点",
    "pricerange": "中等",
    "metro_station": "否",
    "per_capita_consumption": "58元",
    "address": "石湖西路石湖景区南商业街",
    "phone_number": "0512-68210779",
    "score": 4.8,
    "business_hours": "周一至周日 09:30-23:00",
    "dishes": "巧克力松饼"
  },
  {
    "name": "狐狸家手工酸奶酪",
    "area": "姑苏区",
    "cuisine": "面包甜点",
    "pricerange": "便宜",
    "metro_station": "是",
    "per_capita_consumption": "16元",
    "address": "平江路256号(近白塔东路)",
    "phone_number": "139-1317-0170",
    "score": 4.5,
    "business_hours": "周一至周日 10:00-19:00",
    "dishes": "手工酸奶"
  },
  {
    "name": "采芝斋",
    "area": "姑苏区",
    "cuisine": "面包甜点",
    "pricerange": "便宜",
    "metro_station": "是",
    "per_capita_consumption": "38元",
    "address": "苏州市姑苏区观前街91号",
    "phone_number": "0512-67274512",
    "score": 4.3,
    "business_hours": "周一至周日 08:30-21:30",
    "dishes": "酒酿饼"
  },
  {
    "name": "芳芳法餐厅",
    "area": "工业园区",
    "cuisine": "面包甜点",
    "pricerange": "偏贵",
    "metro_station": "是",
    "per_capita_consumption": "412元",
    "address": "苏绣路68号苏州中心南区3楼B3-19",
    "phone_number": "0512-69881018",
    "score": 4.5,
    "business_hours": "周一至周日 11:30-22:00",
    "dishes": "法式奶油蘑菇汤"
  },
  {
    "name": "山崎面包",
    "area": "高新区",
    "cuisine": "面包甜点",
    "pricerange": "便宜",
    "metro_station": "是",
    "per_capita_consumption": "26元",
    "address": "长江路211号泉屋百货负一层",
    "phone_number": "0512-62396721",
    "score": 4.6,
    "business_hours": "周一至周日 10:00-22:00",
    "dishes": "皇后土司"
  },
  {
    "name": "闺蜜家",
    "area": "吴江",
    "cuisine": "面包甜点",
    "pricerange": "便宜",
    "metro_station": "否",
    "per_capita_consumption": "23元",
    "address": "西塘河路3号",
    "phone_number": "0512-63336664",
    "score": 4.8,
    "business_hours": "周一至周日 09:30-21:30",
    "dishes": "蛋黄鲜肉月饼"
  },
  {
    "name": "农乐园炭火烤肉",
    "area": "姑苏区",
    "cuisine": "韩国料理",
    "pricerange": "中等",
    "metro_station": "是",
    "per_capita_consumption": "88元",
    "address": "广济南路19号西城永捷大厦5楼A502室",
    "phone_number": "0512-68659822",
    "score": 4.6,
    "business_hours": "周一至周日 11:00-14:00 16:30-21:30",
    "dishes": "石锅拌饭"
  },
  {
    "name": "伴园私房菜",
    "area": "姑苏区",
    "cuisine": "江浙菜",
    "pricerange": "偏贵",
    "metro_station": "否",
    "per_capita_consumption": "204元",
    "address": "平江路北段传芳巷3号",
    "phone_number": "139-6217-0368",
    "score": 4.7,
    "business_hours": "周一至周日 11:30-14:00 17:30-21:30",
    "dishes": "香煎玫瑰鱼"
  },
  {
    "name": "松鹤楼",
    "area": "姑苏区",
    "cuisine": "江浙菜",
    "pricerange": "偏贵",
    "metro_station": "是",
    "per_capita_consumption": "150元",
    "address": "太监弄72号(近玄妙观)",
    "phone_number": "0512-67700688",
    "score": 3.5,
    "business_hours": "周一至周日 11:00-13:30 17:00-20:30",
    "dishes": "松鼠桂鱼"
  },
  {
    "name": "付小姐在成都",
    "area": "姑苏区",
    "cuisine": "川菜",
    "pricerange": "中等",
    "metro_station": "否",
    "per_capita_consumption": "73元",
    "address": "景德路与学士街交叉口苏州中医药博物馆旁",
    "phone_number": "0512-67299832",
    "score": 4.6,
    "business_hours": "周一至周日 11:00-24:00",
    "dishes": "红糖糍粑"
  },
  {
    "name": "老天桥蛙炉火锅",
    "area": "姑苏区",
    "cuisine": "火锅",
    "pricerange": "偏贵",
    "metro_station": "否",
    "per_capita_consumption": "120元",
    "address": "学士街54号",
    "phone_number": "0512-65816338",
    "score": 4.6,
    "business_hours": "周一至周日 全天",
    "dishes": "牛蛙"
  },
  {
    "name": "唐宫海鲜舫",
    "area": "姑苏区",
    "cuisine": "粤菜",
    "pricerange": "偏贵",
    "metro_station": "是",
    "per_capita_consumption": "135元",
    "address": "观前街245号美罗商城东楼5层",
    "phone_number": "0512-69168288",
    "score": 4.6,
    "business_hours": "周一至周日 10:00-22:00",
    "dishes": "豉汁蒸凤爪"
  },
  {
    "name": "北疆饭店",
    "area": "姑苏区",
    "cuisine": "西北菜",
    "pricerange": "便宜",
    "metro_station": "是",
    "per_capita_consumption": "67元",
    "address": "干将东路428号",
    "phone_number": "0512-67557020",
    "score": 4.4,
    "business_hours": "周一至周日 10:00-22:00",
    "dishes": "新疆大盘鸡"
  },
  {
    "name": "莉莉小炒",
    "area": "姑苏区",
    "cuisine": "东北菜",
    "pricerange": "便宜",
    "metro_station": "否",
    "per_capita_consumption": "29元",
    "address": "十梓街1号苏州大学西门",
    "phone_number": "180-1350-3488",
    "score": 4.5,
    "business_hours": "周一至周日 08:00-21:00",
    "dishes": "回锅肉"
  },
  {
    "name": "东吴面馆",
    "area": "姑苏区",
    "cuisine": "快餐简餐",
    "pricerange": "便宜",
    "metro_station": "是",
    "per_capita_consumption": "18元",
    "address": "桐泾北路22号",
    "phone_number": "0512-65707783",
    "score": 4.7,
    "business_hours": "周一至周日 06:00-14:00 16:30-19:00",
    "dishes": "鸡汁大排面"
  },
  {
    "name": "得月楼",
    "area": "工业园区",
    "cuisine": "江浙菜",
    "pricerange": "偏贵",
    "metro_station": "否",
    "per_capita_consumption": "176元",
    "address": "李公堤路22号",
    "phone_number": "0512-62656999",
    "score": 4.3,
    "business_hours": "周一至周日 10:30-14:00 16:30-21:00",
    "dishes": "蟹粉豆腐"
  },
  {
    "name": "万魚亭·鹤家日本料理铁板烧",
    "area": "工业园区",
    "cuisine": "日本料理",
    "pricerange": "偏贵",
    "metro_station": "否",
    "per_capita_consumption": "177元",
    "address": "星港街158号湖滨新天地湖滨楼1楼",
    "phone_number": "0512-67678177",
    "score": 4.5,
    "business_hours": "周一至周日 10:00-15:00 17:00-22:30",
    "dishes": "三文鱼"
  },
  {
    "name": "外婆家",
    "area": "工业园区",
    "cuisine": "江浙菜",
    "pricerange": "便宜",
    "metro_station": "是",
    "per_capita_consumption": "63元",
    "address": "工业园区旺墩路269号圆融购物中心4楼",
    "phone_number": "0512-62857757",
    "score": 4.5,
    "business_hours": "周一至周日 11:00-14:00 16:30-21:00",
    "dishes": "外婆红烧肉"
  },
  {
    "name": "王品牛排",
    "area": "工业园区",
    "cuisine": "西餐",
    "pricerange": "偏贵",
    "metro_station": "是",
    "per_capita_consumption": "405元",
    "address": "苏州大道东与华池街交叉口新光天地2层",
    "phone_number": "0512-62567071",
    "score": 4.6,
    "business_hours": "周一至周日 11:30-14:00 17:30-21:00",
    "dishes": "台塑牛排"
  },
  {
    "name": "海底捞火锅",
    "area": "工业园区",
    "cuisine": "火锅",
    "pricerange": "偏贵",
    "metro_station": "否",
    "per_capita_consumption": "127元",
    "address": "苏雅路318号赛格数码四楼",
    "phone_number": "0512-67603337",
    "score": 4.8,
    "business_hours": "周一至周日 09:00-07:00",
    "dishes": "番茄锅"
  },
  {
    "name": "西贝莜面村",
    "area": "工业园区",
    "cuisine": "西北菜",
    "pricerange": "中等",
    "metro_station": "是",
    "per_capita_consumption": "92元",
    "address": "旺墩路269号圆融星座购物中心4F",
    "phone_number": "400-8207320",
    "score": 4.6,
    "business_hours": "周一至周日 10:30-21:30",
    "dishes": "牛大骨"
  },
  {
    "name": "臻品粤茶餐厅",
    "area": "工业园区",
    "cuisine": "粤菜",
    "pricerange": "中等",
    "metro_station": "是",
    "per_capita_consumption": "99元",
    "address": "苏绣路368号天翔花园133号",
    "phone_number": "0512-62568777",
    "score": 4.4,
    "business_hours": "周一至周日 10:30-21:30",
    "dishes": "烧鹅"
  },
  {
    "name": "江边城外烤全鱼",
    "area": "工业园区",
    "cuisine": "川菜",
    "pricerange": "中等",
    "metro_station": "是",
    "per_capita_consumption": "90元",
    "address": "旺墩路269号星座上午广场",
    "phone_number": "0512-67634656",
    "score": 4.3,
    "business_hours": "周一至周日 10:30-22:00",
    "dishes": "怪味烤鱼"
  },
  {
    "name": "青鹤谷",
    "area": "工业园区",
    "cuisine": "韩国料理",
    "pricerange": "偏贵",
    "metro_station": "否",
    "per_capita_consumption": "154元",
    "address": "李公堤三期21幢",
    "phone_number": "0512-67635689",
    "score": 4.8,
    "business_hours": "周一至周日 11:30-21:00",
    "dishes": "泡菜饼"
  },
  {
    "name": "鑫花溪牛肉米粉",
    "area": "工业园区",
    "cuisine": "快餐简餐",
    "pricerange": "便宜",
    "metro_station": "否",
    "per_capita_consumption": "24元",
    "address": "后戴街9号时尚舞台2楼",
    "phone_number": "0512-62811808",
    "score": 4.6,
    "business_hours": "周一至周日 09:00-20:00",
    "dishes": "招聘牛杂粉"
  },
  {
    "name": "好人民间小吃",
    "area": "吴中区",
    "cuisine": "快餐简餐",
    "pricerange": "便宜",
    "metro_station": "是",
    "per_capita_consumption": "42元",
    "address": "金山路47-1号(木渎天虹商场B1层B1001-2号)",
    "phone_number": "0512-83989318",
    "score": 4.5,
    "business_hours": "周一至周日 10:00-20:30",
    "dishes": "无刺酸菜鱼"
  },
  {
    "name": "老枫庭",
    "area": "吴中区",
    "cuisine": "江浙菜",
    "pricerange": "中等",
    "metro_station": "否",
    "per_capita_consumption": "94元",
    "address": "木渎灵天路55号芭提雅休闲娱乐广场5号楼",
    "phone_number": "0512-66277557",
    "score": 4.6,
    "business_hours": "周一至周日 11:00-13:30 17:00-20:30",
    "dishes": "松鼠桂鱼"
  },
  {
    "name": "羊关故人",
    "area": "吴中区",
    "cuisine": "西北菜",
    "pricerange": "中等",
    "metro_station": "否",
    "per_capita_consumption": "87元",
    "address": "九华路128号华润万家旁边电梯三楼",
    "phone_number": "0512-65074650",
    "score": 4.8,
    "business_hours": "周一至周日 10:00-22:00",
    "dishes": "葱爆羊肚"
  },
  {
    "name": "四川香天下火锅",
    "area": "吴中区",
    "cuisine": "火锅",
    "pricerange": "中等",
    "metro_station": "否",
    "per_capita_consumption": "97元",
    "address": "苏州吴中经济开发区越溪街道吴中大道1109号1幢1楼",
    "phone_number": "0512-66171777",
    "score": 4.4,
    "business_hours": "周一至周日 11:00-23:30",
    "dishes": "雪花肥牛"
  },
  {
    "name": "壹加回转寿司",
    "area": "吴中区",
    "cuisine": "日本料理",
    "pricerange": "便宜",
    "metro_station": "否",
    "per_capita_consumption": "58元",
    "address": "越溪苏震桃路188号永旺梦乐城1层",
    "phone_number": "0512-65884527",
    "score": 4.4,
    "business_hours": "周一至周日 10:00-22:00",
    "dishes": "法式鹅肝"
  },
  {
    "name": "奶酪时光",
    "area": "吴中区",
    "cuisine": "西餐",
    "pricerange": "中等",
    "metro_station": "是",
    "per_capita_consumption": "85元",
    "address": "木渎影视城13号楼一层",
    "phone_number": "0512-67087949",
    "score": 4.7,
    "business_hours": "周一至周日 09:30-21:00",
    "dishes": "肉酱意面"
  },
  {
    "name": "汉城韩国料理",
    "area": "吴中区",
    "cuisine": "韩国料理",
    "pricerange": "中等",
    "metro_station": "是",
    "per_capita_consumption": "81元",
    "address": "宝带东路399号丽丰广场一楼",
    "phone_number": "139-1359-2929",
    "score": 4.7,
    "business_hours": "周一至周日 10:30-21:00",
    "dishes": "石锅拌饭"
  },
  {
    "name": "东北饭庄",
    "area": "吴中区",
    "cuisine": "东北菜",
    "pricerange": "便宜",
    "metro_station": "否",
    "per_capita_consumption": "49元",
    "address": "胥市街与中市街交叉口附近",
    "phone_number": "0512-66310773",
    "score": 4.3,
    "business_hours": "周一至周日 10:30-21:00",
    "dishes": "锅包肉"
  },
  {
    "name": "巴蜀传香",
    "area": "高新区",
    "cuisine": "川菜",
    "pricerange": "中等",
    "metro_station": "是",
    "per_capita_consumption": "75元",
    "address": "高新区塔园路162号",
    "phone_number": "0512-68249987",
    "score": 4.3,
    "business_hours": "周一至周日 10:30-01:00",
    "dishes": "剁椒鱼头"
  },
  {
    "name": "熬八年火锅",
    "area": "高新区",
    "cuisine": "火锅",
    "pricerange": "偏贵",
    "metro_station": "是",
    "per_capita_consumption": "127元",
    "address": "狮山路298号苏州金鹰国际广场6楼",
    "phone_number": "0512-68783880",
    "score": 4.2,
    "business_hours": "周一至周日 11:00-22:00",
    "dishes": "手工虾滑"
  },
  {
    "name": "桃花源记",
    "area": "高新区",
    "cuisine": "江浙菜",
    "pricerange": "便宜",
    "metro_station": "是",
    "per_capita_consumption": "31元",
    "address": "长江路211号泉屋百货负一层",
    "phone_number": "0512-68207978",
    "score": 4.5,
    "business_hours": "周一至周日 10:00-21:30",
    "dishes": "木桶豆腐花"
  },
  {
    "name": "金色三麦精酿啤酒餐厅",
    "area": "高新区",
    "cuisine": "西餐",
    "pricerange": "偏贵",
    "metro_station": "否",
    "per_capita_consumption": "179元",
    "address": "狮山路35号金河国际大厦4楼",
    "phone_number": "0512-66655909",
    "score": 4.6,
    "business_hours": "周一至周日 11:00-24:00",
    "dishes": "披萨"
  },
  {
    "name": "知味日本料理",
    "area": "高新区",
    "cuisine": "日本料理",
    "pricerange": "偏贵",
    "metro_station": "否",
    "per_capita_consumption": "215元",
    "address": "淮海街11号",
    "phone_number": "0512-68618677",
    "score": 4.5,
    "business_hours": "周一至周日 11:00-14:00 16:00-22:00",
    "dishes": "三文鱼"
  },
  {
    "name": "多多旺港式茶餐厅",
    "area": "高新区",
    "cuisine": "粤菜",
    "pricerange": "便宜",
    "metro_station": "否",
    "per_capita_consumption": "65元",
    "address": "狮山路215号吴宫丽都商业街1楼",
    "phone_number": "0512-68788933",
    "score": 4.4,
    "business_hours": "周一至周日 09:30-02:00",
    "dishes": "海鲜粥"
  },
  {
    "name": "八色烤肉",
    "area": "高新区",
    "cuisine": "韩国料理",
    "pricerange": "中等",
    "metro_station": "是",
    "per_capita_consumption": "103元",
    "address": "长江路绿宝广场绿宝步行街二期1层7幢113",
    "phone_number": "0512-62919949",
    "score": 4.2,
    "business_hours": "周一至周日 10:00-22:00",
    "dishes": "辛拉面"
  },
  {
    "name": "小杨生煎",
    "area": "高新区",
    "cuisine": "快餐简餐",
    "pricerange": "便宜",
    "metro_station": "是",
    "per_capita_consumption": "20元",
    "address": "高新区长江路211号",
    "phone_number": "0512-68799751",
    "score": 4.5,
    "business_hours": "周一至周日 10:00-22:00",
    "dishes": "虾仁生煎"
  },
  {
    "name": "关之北",
    "area": "高新区",
    "cuisine": "东北菜",
    "pricerange": "便宜",
    "metro_station": "否",
    "per_capita_consumption": "58元",
    "address": "城际路19号永旺梦乐城2楼",
    "phone_number": "0512-62917283",
    "score": 4.3,
    "business_hours": "周一至周日 10:30-22:00",
    "dishes": "酱骨头"
  },
  {
    "name": "五芳斋",
    "area": "吴江",
    "cuisine": "快餐简餐",
    "pricerange": "便宜",
    "metro_station": "否",
    "per_capita_consumption": "33元",
    "address": "吴江流虹路和鲈乡南路交叉口",
    "phone_number": "0512-63575791",
    "score": 4.6,
    "business_hours": "周一至周日 07:30-20:30",
    "dishes": "蛋黄肉粽"
  },
  {
    "name": "严厨老坛酸菜鱼",
    "area": "吴江",
    "cuisine": "川菜",
    "pricerange": "中等",
    "metro_station": "否",
    "per_capita_consumption": "80元",
    "address": "横港路中青年服饰对面",
    "phone_number": "0512-86876178",
    "score": 4.6,
    "business_hours": "周一至周日 10:00-21:00",
    "dishes": "四川担担面"
  },
  {
    "name": "重庆德庄火锅直营店",
    "area": "吴江",
    "cuisine": "火锅",
    "pricerange": "偏贵",
    "metro_station": "否",
    "per_capita_consumption": "130元",
    "address": "松陵万宝广场三楼S3015",
    "phone_number": "0512-88982265",
    "score": 4.5,
    "business_hours": "周一至周日 10:00-22:00",
    "dishes": "手工虾滑"
  },
  {
    "name": "同里老家",
    "area": "吴江",
    "cuisine": "江浙菜",
    "pricerange": "中等",
    "metro_station": "否",
    "per_capita_consumption": "87元",
    "address": "同里镇环湖西路318号",
    "phone_number": "0512-63339777",
    "score": 4.5,
    "business_hours": "周一至周日 10:00-22:00",
    "dishes": "太湖三白"
  },
  {
    "name": "牛炭家本格炭火烤肉",
    "area": "吴江",
    "cuisine": "日本料理",
    "pricerange": "中等",
    "metro_station": "否",
    "per_capita_consumption": "90元",
    "address": "汾湖经济开发区芦莘大道1066号",
    "phone_number": "0512-63263679",
    "score": 4.6,
    "business_hours": "周一至周日 11:00-22:00",
    "dishes": "三文鱼寿司"
  },
  {
    "name": "周庄花间堂桔梗餐厅",
    "area": "昆山",
    "cuisine": "江浙菜",
    "pricerange": "中等",
    "metro_station": "否",
    "per_capita_consumption": "98元",
    "address": "周庄镇中市街110号景点迷楼北10米",
    "phone_number": "138-1289-9961",
    "score": 4.5,
    "business_hours": "周一至周日 07:00-20:30",
    "dishes": "银鱼炒蛋"
  },
  {
    "name": "蟹王酒楼",
    "area": "常熟",
    "cuisine": "江浙菜",
    "pricerange": "便宜",
    "metro_station": "否",
    "per_capita_consumption": "60元",
    "address": "芦苇荡路风景区停车场旁",
    "phone_number": "0512-52507977",
    "score": 4.8,
    "business_hours": "周一至周日 08:00-20:00",
    "dishes": "大闸蟹"
  }
]
