[
    {
        "name": "LELECHA",
        "area": "Parc industriel de Suzhou",
        "cuisine": "du pain et des desserts",
        "pricerange": "bon marché",
        "metro_station": "true",
        "per_capita_consumption": "44 yuans",
        "address": "B1, section nord, Suzhou Center, rue Xinggang",
        "phone_number": "0512-66363836",
        "score": "4,5",
        "business_hours": "10 h 00 à 22 h 00, du lundi au dimanche",
        "dishes": "petit pan étoilée à la crème pâtissière"
    },
    {
        "name": "HOU GA FEI",
        "area": "District de Wuzhong",
        "cuisine": "du pain et des desserts",
        "pricerange": "modérée",
        "metro_station": "false",
        "per_capita_consumption": "58 yuans",
        "address": "South Commercial Street, Shihu Scenic Area, Shihu West Road",
        "phone_number": "0512-68210779",
        "score": "4,8",
        "business_hours": "de 09 h 30 à 23 h 00, du lundi au dimanche",
        "dishes": "Muffins au chocolat"
    },
    {
        "name": "Yaourt Maison Fox",
        "area": "District de Gusu",
        "cuisine": "du pain et des desserts",
        "pricerange": "bon marché",
        "metro_station": "true",
        "per_capita_consumption": "16 yuans",
        "address": "N° 256, Pingjiang Road (près de Baita East Road)",
        "phone_number": "139-1317-0170",
        "score": "4,5",
        "business_hours": "10:00-19:00, du lundi au dimanche",
        "dishes": "yaourt fait maison"
    },
    {
        "name": "Cai Zhi Zhai",
        "area": "District de Gusu",
        "cuisine": "du pain et des desserts",
        "pricerange": "bon marché",
        "metro_station": "true",
        "per_capita_consumption": "38 yuans",
        "address": "No. 91, Guanqian Street, Gusu District, Suzhou City",
        "phone_number": "0512-67274512",
        "score": "4,3",
        "business_hours": "08:30-21:30, du lundi au dimanche",
        "dishes": "Scone au riz fermenté sucré"
    },
    {
        "name": "L'Arôme",
        "area": "Parc industriel de Suzhou",
        "cuisine": "du pain et des desserts",
        "pricerange": "un peu cher",
        "metro_station": "true",
        "per_capita_consumption": "412 yuans",
        "address": "B3-19, 3F, South Section, Suzhou Center, n° 68, Suxiu Road",
        "phone_number": "0512-69881018",
        "score": "4,5",
        "business_hours": "11 h 30 à 22h, du lundi au dimanche",
        "dishes": "velouté de champignons"
    },
    {
        "name": "Boulangerie Yamazaki",
        "area": "Nouveau district de Suzhou",
        "cuisine": "du pain et des desserts",
        "pricerange": "bon marché",
        "metro_station": "true",
        "per_capita_consumption": "26 yuans",
        "address": "au B1F du grand magasin Izumiya, n° 211, route de Changjiang",
        "phone_number": "0512-62396721",
        "score": "4,6",
        "business_hours": "10 h 00 à 22 h 00, du lundi au dimanche",
        "dishes": "Pain de la Reine"
    },
    {
        "name": "Guimijia",
        "area": "District de Wujiang",
        "cuisine": "du pain et des desserts",
        "pricerange": "bon marché",
        "metro_station": "false",
        "per_capita_consumption": "23 yuan",
        "address": "No. 3, Xitanghe Road",
        "phone_number": "0512-63336664",
        "score": "4,8",
        "business_hours": "09:30-21:30, du lundi au dimanche",
        "dishes": "gâteau de lune à l'œuf et à la viande"
    },
    {
        "name": "barbecue au charbon de bois Nongleyuan",
        "area": "District de Gusu",
        "cuisine": "cuisine sud-coréenne",
        "pricerange": "modérée",
        "metro_station": "true",
        "per_capita_consumption": "88 yuans",
        "address": "A502, 5F du Bâtiment Xicheng Yongjie, n° 19, route sud de Guangji",
        "phone_number": "0512-68659822",
        "score": "4,6",
        "business_hours": "11 h 00 - 14 h 00 et 16 h 30 - 21 h 30, du lundi au dimanche",
        "dishes": "riz en pot de pierre"
    },
    {
        "name": "Banyuan Private Home Cuisine",
        "area": "District de Gusu",
        "cuisine": "Jiangsu-Zhejiang",
        "pricerange": "un peu cher",
        "metro_station": "false",
        "per_capita_consumption": "204 yuans",
        "address": "n°3 de l'allée Chuanfang, au nord de la route Pingjiang",
        "phone_number": "139-6217-0368",
        "score": "4,7",
        "business_hours": "11:30-14:00 17:30-21:30, du lundi au dimanche",
        "dishes": "Poisson frit parfumé à la rose"
    },
    {
        "name": "restaurant Songhelou",
        "area": "District de Gusu",
        "cuisine": "Jiangsu-Zhejiang",
        "pricerange": "un peu cher",
        "metro_station": "true",
        "per_capita_consumption": "150 yuans",
        "address": "n° 72 de la ruelle Taijian (près du temple Xuanmiao)",
        "phone_number": "0512-67700688",
        "score": "3,5",
        "business_hours": "11 h 00 à 13 h 30 et de 17 h 00 à 20 h 30, du lundi au dimanche",
        "dishes": "le poisson mandarin aigre-doux"
    },
    {
        "name": "Miss Fu à Chengdu",
        "area": "District de Gusu",
        "cuisine": "Sichuan",
        "pricerange": "modérée",
        "metro_station": "false",
        "per_capita_consumption": "73 yuans",
        "address": "à l'intersection de la rue Jingde et la rue Xueshi, à côté du musée de la médecine traditionnelle chinoise de Suzhou",
        "phone_number": "0512-67299832",
        "score": "4,6",
        "business_hours": "11 h 00 à 24 h 00, du lundi au dimanche",
        "dishes": "Gâteaux de riz glutineux au sucre brun"
    },
    {
        "name": "fondue chinoise Laotianqiao Frog",
        "area": "District de Gusu",
        "cuisine": "fondue chinoise",
        "pricerange": "un peu cher",
        "metro_station": "false",
        "per_capita_consumption": "120 yuans",
        "address": "numéro 54 de la rue Xueshi",
        "phone_number": "0512-65816338",
        "score": "4,6",
        "business_hours": "toute la journée, du lundi au dimanche",
        "dishes": "grenouilles"
    },
    {
        "name": "restaurant de fruits de mer Tang Palace",
        "area": "District de Gusu",
        "cuisine": "Cantonais",
        "pricerange": "un peu cher",
        "metro_station": "true",
        "per_capita_consumption": "135 yuans",
        "address": "5F, Bâtiment Est du Metro Mall, n° 245, rue Guanqian",
        "phone_number": "0512-69168288",
        "score": "4,6",
        "business_hours": "10 h 00 à 22 h 00, du lundi au dimanche",
        "dishes": "pattes de poulet à la vapeur avec du jus de soja fermenté"
    },
    {
        "name": "Restaurant Beijiang",
        "area": "District de Gusu",
        "cuisine": "du Nord-Ouest",
        "pricerange": "bon marché",
        "metro_station": "true",
        "per_capita_consumption": "67 yuans",
        "address": "n°428, East Ganjiang Road",
        "phone_number": "0512-67557020",
        "score": "4,4",
        "business_hours": "10 h 00 à 22 h 00, du lundi au dimanche",
        "dishes": "Poulet à grande assiette du Xinjiang"
    },
    {
        "name": "Li Li Xiao Chao",
        "area": "District de Gusu",
        "cuisine": "Cuisine chinoise du nord-est",
        "pricerange": "bon marché",
        "metro_station": "false",
        "per_capita_consumption": "29 yuans",
        "address": "numéro 1 de la rue Shizi, porte ouest de l'université de Soochow",
        "phone_number": "180-1350-3488",
        "score": "4,5",
        "business_hours": "de 08 h 00 à 21 h 00, du lundi au dimanche",
        "dishes": "porc cuit en deux fois"
    },
    {
        "name": "Dongwu Noodle House",
        "area": "District de Gusu",
        "cuisine": "restauration rapide",
        "pricerange": "bon marché",
        "metro_station": "true",
        "per_capita_consumption": "18 yuans",
        "address": "No. 22, North Tongjing Road",
        "phone_number": "0512-65707783",
        "score": "4,7",
        "business_hours": "06:00-14:00 16:30-19:00, du lundi au dimanche",
        "dishes": "Soupe au poulet et aux nouilles"
    },
    {
        "name": "Deyuelou",
        "area": "Parc industriel de Suzhou",
        "cuisine": "Jiangsu-Zhejiang",
        "pricerange": "un peu cher",
        "metro_station": "false",
        "per_capita_consumption": "176 yuans",
        "address": "No. 22, Ligong Causeway Road",
        "phone_number": "0512-62656999",
        "score": "4,3",
        "business_hours": "10:30-14:00 16:30-21:00, du lundi au dimanche",
        "dishes": "crabe braisé au tofu"
    },
    {
        "name": "Wanyuting-hejiariben Cuisine Teppanyaki",
        "area": "Parc industriel de Suzhou",
        "cuisine": "cuisine japonaise",
        "pricerange": "un peu cher",
        "metro_station": "false",
        "per_capita_consumption": "177 yuans",
        "address": "1F, Bâtiment Hubin Xintiandi Côté du Lac, n° 158, rue Xinggang",
        "phone_number": "0512-67678177",
        "score": "4,5",
        "business_hours": "de 10 h 00 à 15 h 00 et de 17 h 00 à 22 h 30, du lundi au dimanche",
        "dishes": "saumon"
    },
    {
        "name": "Grandma's Home",
        "area": "Parc industriel de Suzhou",
        "cuisine": "Jiangsu-Zhejiang",
        "pricerange": "bon marché",
        "metro_station": "true",
        "per_capita_consumption": "63 yuans",
        "address": "4F, ville de Harmony, n°269, route de Wang Dun",
        "phone_number": "0512-62857757",
        "score": "4,5",
        "business_hours": "11 h à 14 h et de 16 h 30 à 21 h, du lundi au dimanche",
        "dishes": "Poitrine de porc braisée rouge de grand-mère"
    },
    {
        "name": "Wang Steak",
        "area": "Parc industriel de Suzhou",
        "cuisine": "occidentale",
        "pricerange": "un peu cher",
        "metro_station": "true",
        "per_capita_consumption": "405 yuans",
        "address": "2ème étage de la place Shin Kong, à l'intersection de l'avenue de Suzhou Est et la rue Huachi",
        "phone_number": "0512-62567071",
        "score": "4,6",
        "business_hours": "11 h 30 à 14 h 00 et de 17 h 30 à 21 h 00, du lundi au dimanche",
        "dishes": "le bifteck Tai-sow"
    },
    {
        "name": "fondue chinoise Haidilao",
        "area": "Parc industriel de Suzhou",
        "cuisine": "fondue chinoise",
        "pricerange": "un peu cher",
        "metro_station": "false",
        "per_capita_consumption": "127 yuans",
        "address": "Il se trouve au 4F de Saige Digital Plaza, No. 318, Suya Road.",
        "phone_number": "0512-67603337",
        "score": "4,8",
        "business_hours": "de 09 h 00 à 07 h 00, du lundi au dimanche",
        "dishes": "Il est recommandé de donner au pot de tomates"
    },
    {
        "name": "Restaurant Xibei",
        "area": "Parc industriel de Suzhou",
        "cuisine": "du Nord-Ouest",
        "pricerange": "modérée",
        "metro_station": "true",
        "per_capita_consumption": "92 yuans",
        "address": "4F, Harmony City, n° 269, route Wang Dun",
        "phone_number": "400-8207320",
        "score": "4,6",
        "business_hours": "10 h 30 - 21 h 30, du lundi au dimanche",
        "dishes": "l'os de grande vache"
    },
    {
        "name": "Salon de thé Zhen Pin Yue",
        "area": "Parc industriel de Suzhou",
        "cuisine": "Cantonais",
        "pricerange": "modérée",
        "metro_station": "true",
        "per_capita_consumption": "99 yuans",
        "address": "133, TianXiang Garden, 386, Suxiu Road",
        "phone_number": "0512-62568777",
        "score": "4,4",
        "business_hours": "10 h 30 - 21 h 30, du lundi au dimanche",
        "dishes": "L'oie rôtie"
    },
    {
        "name": "Riverside Grilled Fish",
        "area": "Parc industriel de Suzhou",
        "cuisine": "Sichuan",
        "pricerange": "modérée",
        "metro_station": "true",
        "per_capita_consumption": "90 yuans",
        "address": "Harmony Constellation Plaza City, n° 269, Wang Dun Road",
        "phone_number": "0512-67634656",
        "score": "4,3",
        "business_hours": "de 10 h 30 à 22 h 00, du lundi au dimanche",
        "dishes": "Poisson entier grillé dans une sauce unique"
    },
    {
        "name": "Qing He Gu",
        "area": "Parc industriel de Suzhou",
        "cuisine": "cuisine sud-coréenne",
        "pricerange": "un peu cher",
        "metro_station": "false",
        "per_capita_consumption": "154 yuans",
        "address": "Bâtiment n° 21, Li Gongdi Phase 3",
        "phone_number": "0512-67635689",
        "score": "4,8",
        "business_hours": "11 h 30 à 21 h 00, du lundi au dimanche",
        "dishes": "Tarte au kimchi"
    },
    {
        "name": "nouilles de riz au boeuf de Xin Hua Xi",
        "area": "Parc industriel de Suzhou",
        "cuisine": "restauration rapide",
        "pricerange": "bon marché",
        "metro_station": "false",
        "per_capita_consumption": "24 yuan",
        "address": "2F de Suzhou Stage, n° 9 rue Houdai",
        "phone_number": "0512-62811808",
        "score": "4,6",
        "business_hours": "09:00-20:00, du lundi au dimanche",
        "dishes": "Nouilles à l'essence d'abats de bœuf"
    },
    {
        "name": "Goodman Folk Snacks",
        "area": "District de Wuzhong",
        "cuisine": "restauration rapide",
        "pricerange": "bon marché",
        "metro_station": "true",
        "per_capita_consumption": "42 yuans",
        "address": "No. 47-1, Jinshan Road (No. B1001-2, Floor B1, Mudu Tianhong Mall)",
        "phone_number": "0512-83989318",
        "score": "4,5",
        "business_hours": "10 h 00 à 20 h 30, du lundi au dimanche",
        "dishes": "poisson désossé bouilli avec du chou mariné et du chili"
    },
    {
        "name": "Laofengting",
        "area": "District de Wuzhong",
        "cuisine": "Jiangsu-Zhejiang",
        "pricerange": "modérée",
        "metro_station": "false",
        "per_capita_consumption": "94 yuans",
        "address": "Bâtiment 5, Plaza de Loisirs et Divertissement de Pattaya, n° 55, route de Lintian, à Mudu",
        "phone_number": "0512-66277557",
        "score": "4,6",
        "business_hours": "11 h 00 à 13 h 30 et de 17 h 00 à 20 h 30, du lundi au dimanche",
        "dishes": "le poisson mandarin aigre-doux"
    },
    {
        "name": "Yang Guan Gu Ren",
        "area": "District de Wuzhong",
        "cuisine": "du Nord-Ouest",
        "pricerange": "modérée",
        "metro_station": "false",
        "per_capita_consumption": "87 yuans",
        "address": "3e étage, juste à côté de l'ascenseur du CR Vanguard, n° 128, route de Jiuhua",
        "phone_number": "0512-65074650",
        "score": "4,8",
        "business_hours": "10 h 00 à 22 h 00, du lundi au dimanche",
        "dishes": "mouton frit à l'échalote"
    },
    {
        "name": "fondue chinoise Sichuan Xiang Tian Xia",
        "area": "District de Wuzhong",
        "cuisine": "fondue chinoise",
        "pricerange": "modérée",
        "metro_station": "false",
        "per_capita_consumption": "97 yuans",
        "address": "Floor 1, Building 1, No. 1109, Wuzhong Avenue, Yuexi Street, Wuzhong Economic Development Zone, Suzhou",
        "phone_number": "0512-66171777",
        "score": "4,4",
        "business_hours": "11:00-23:30, du lundi au dimanche",
        "dishes": "bœuf flocon de neige"
    },
    {
        "name": "One Plus Conveyor Belt Sushi",
        "area": "District de Wuzhong",
        "cuisine": "cuisine japonaise",
        "pricerange": "bon marché",
        "metro_station": "false",
        "per_capita_consumption": "58 yuans",
        "address": "1F, Centre Commercial Aeon, n° 188, rue Suzhentao, Yuexi",
        "phone_number": "0512-65884527",
        "score": "4,4",
        "business_hours": "10 h 00 à 22 h 00, du lundi au dimanche",
        "dishes": "foie gras"
    },
    {
        "name": "Nailaoshiguang",
        "area": "District de Wuzhong",
        "cuisine": "occidentale",
        "pricerange": "modérée",
        "metro_station": "true",
        "per_capita_consumption": "85 yuans",
        "address": "1F, bâtiment 13, Mudu Studio",
        "phone_number": "0512-67087949",
        "score": "4,7",
        "business_hours": "09 h 30 à 21 h 00, du lundi au dimanche",
        "dishes": "pâtes bolognaises"
    },
    {
        "name": "Seoul Korean Cuisine",
        "area": "District de Wuzhong",
        "cuisine": "cuisine sud-coréenne",
        "pricerange": "modérée",
        "metro_station": "true",
        "per_capita_consumption": "81 yuans",
        "address": "Plaza Lifeng 1F, n° 399, route de Baodaidong",
        "phone_number": "139-1359-2929",
        "score": "4,7",
        "business_hours": "de 10 h 30 à 21 h 00, du lundi au dimanche",
        "dishes": "riz en pot de pierre"
    },
    {
        "name": "Restaurant Northeast",
        "area": "District de Wuzhong",
        "cuisine": "Cuisine chinoise du nord-est",
        "pricerange": "bon marché",
        "metro_station": "false",
        "per_capita_consumption": "49 yuans",
        "address": "Près de l'intersection des rues Xushi et Zhongshi.",
        "phone_number": "0512-66310773",
        "score": "4,3",
        "business_hours": "de 10 h 30 à 21 h 00, du lundi au dimanche",
        "dishes": "Tranches de porc cuites"
    },
    {
        "name": "Spicy Memory",
        "area": "Nouveau district de Suzhou",
        "cuisine": "Sichuan",
        "pricerange": "modérée",
        "metro_station": "true",
        "per_capita_consumption": "75 yuans",
        "address": "n° 162, route de Tayuan, dans le nouveau district de Suzhou",
        "phone_number": "0512-68249987",
        "score": "4,3",
        "business_hours": "10 h 30 - 01 h 00, du lundi au dimanche",
        "dishes": "Tête de poisson au chili"
    },
    {
        "name": "fondue chinoise Aobanian",
        "area": "Nouveau district de Suzhou",
        "cuisine": "fondue chinoise",
        "pricerange": "un peu cher",
        "metro_station": "true",
        "per_capita_consumption": "127 yuans",
        "address": "au 6ème étage du centre commercial international Golden Eagle, n° 298, route de Shishan",
        "phone_number": "0512-68783880",
        "score": "4,2",
        "business_hours": "11:00-22:00, du lundi au dimanche",
        "dishes": "les boules de crevettes"
    },
    {
        "name": "Rêve de Taoyuan",
        "area": "Nouveau district de Suzhou",
        "cuisine": "Jiangsu-Zhejiang",
        "pricerange": "bon marché",
        "metro_station": "true",
        "per_capita_consumption": "31 yuans",
        "address": "au B1F du grand magasin Izumiya, n° 211, route de Changjiang",
        "phone_number": "0512-68207978",
        "score": "4,5",
        "business_hours": "10 h 00 à 21 h 30, du lundi au dimanche",
        "dishes": "Pudding au tofu"
    },
    {
        "name": "Restaurant de la brasserie Le Blé d'Or",
        "area": "Nouveau district de Suzhou",
        "cuisine": "occidentale",
        "pricerange": "un peu cher",
        "metro_station": "false",
        "per_capita_consumption": "179 yuans",
        "address": "Floor 4, Jinhe International Building, No. 35, Shishan Road",
        "phone_number": "0512-66655909",
        "score": "4,6",
        "business_hours": "11 h 00 à 24 h 00, du lundi au dimanche",
        "dishes": "pizzas"
    },
    {
        "name": "restaurant japonais Zhiwei",
        "area": "Nouveau district de Suzhou",
        "cuisine": "cuisine japonaise",
        "pricerange": "un peu cher",
        "metro_station": "false",
        "per_capita_consumption": "215 yuans",
        "address": "No.11, rue Huaihai",
        "phone_number": "0512-68618677",
        "score": "4,5",
        "business_hours": "11:00-14:00 16:00-22:00, du lundi au dimanche",
        "dishes": "saumon"
    },
    {
        "name": "salon de thé de style hongkongais DuoDuo Wang",
        "area": "Nouveau district de Suzhou",
        "cuisine": "Cantonais",
        "pricerange": "bon marché",
        "metro_station": "false",
        "per_capita_consumption": "65 yuans",
        "address": "Floor 1, Wugong Lidu Commercial Street, No. 215, Shishan Road",
        "phone_number": "0512-68788933",
        "score": "4,4",
        "business_hours": "09:30-02:00, du lundi au dimanche",
        "dishes": "congee aux fruits de mer"
    },
    {
        "name": "Palsaik Coréen +Q",
        "area": "Nouveau district de Suzhou",
        "cuisine": "cuisine sud-coréenne",
        "pricerange": "modérée",
        "metro_station": "true",
        "per_capita_consumption": "103 yuans",
        "address": "113, 1F du bâtiment 7 de la deuxième section de la rue piétonne Emerald, The Emerald City, route de Changjiang",
        "phone_number": "0512-62919949",
        "score": "4,2",
        "business_hours": "10 h 00 à 22 h 00, du lundi au dimanche",
        "dishes": "ramen épicé"
    },
    {
        "name": "Raviolis Chinois de Yang",
        "area": "Nouveau district de Suzhou",
        "cuisine": "restauration rapide",
        "pricerange": "bon marché",
        "metro_station": "true",
        "per_capita_consumption": "20 yuans",
        "address": "211, rue de Changjiang, dans le nouveau district de Suzhou",
        "phone_number": "0512-68799751",
        "score": "4,5",
        "business_hours": "10 h 00 à 22 h 00, du lundi au dimanche",
        "dishes": "les brioches aux crevettes poêlées"
    },
    {
        "name": "Guan Zhi Nord",
        "area": "Nouveau district de Suzhou",
        "cuisine": "Cuisine chinoise du nord-est",
        "pricerange": "bon marché",
        "metro_station": "false",
        "per_capita_consumption": "58 yuans",
        "address": "Floor 2, Aeon Mall, No. 19, Intercity Road",
        "phone_number": "0512-62917283",
        "score": "4,3",
        "business_hours": "de 10 h 30 à 22 h 00, du lundi au dimanche",
        "dishes": "Os en sauce"
    },
    {
        "name": "Wufangzhai",
        "area": "District de Wujiang",
        "cuisine": "restauration rapide",
        "pricerange": "bon marché",
        "metro_station": "false",
        "per_capita_consumption": "33 yuans",
        "address": "Intersection de la route Liuhong et de la route Luxiang South, district de Wujiang",
        "phone_number": "0512-63575791",
        "score": "4,6",
        "business_hours": "07:30-20:30, du lundi au dimanche",
        "dishes": "boulette de viande et de jaune d'œuf"
    },
    {
        "name": "Master Yan",
        "area": "District de Wujiang",
        "cuisine": "Sichuan",
        "pricerange": "modérée",
        "metro_station": "false",
        "per_capita_consumption": "80 yuans",
        "address": "boutique Zhongqingnian dans la route Henggang",
        "phone_number": "0512-86876178",
        "score": "4,6",
        "business_hours": "10:00-21:00, du lundi au dimanche",
        "dishes": "Nouilles Dandan du Sichuan"
    },
    {
        "name": "fondue chinoise de Chongqing De Zhuang",
        "area": "District de Wujiang",
        "cuisine": "fondue chinoise",
        "pricerange": "un peu cher",
        "metro_station": "false",
        "per_capita_consumption": "130 yuans",
        "address": "S3015, F3, Wanbao Plaza, Songling",
        "phone_number": "0512-88982265",
        "score": "4,5",
        "business_hours": "10 h 00 à 22 h 00, du lundi au dimanche",
        "dishes": "les boules de crevettes"
    },
    {
        "name": "Tongli Hometown",
        "area": "District de Wujiang",
        "cuisine": "Jiangsu-Zhejiang",
        "pricerange": "modérée",
        "metro_station": "false",
        "per_capita_consumption": "87 yuans",
        "address": "No. 318, Huanhu West Road, Tongli Town",
        "phone_number": "0512-63339777",
        "score": "4,5",
        "business_hours": "10 h 00 à 22 h 00, du lundi au dimanche",
        "dishes": "Poissons blancs, lépismes et crevettes blanches du lac Taihu"
    },
    {
        "name": "Barbecue à charbon de Niutanjia Ben'Ge",
        "area": "District de Wujiang",
        "cuisine": "cuisine japonaise",
        "pricerange": "modérée",
        "metro_station": "false",
        "per_capita_consumption": "90 yuans",
        "address": "No. 1066, Lushen Avenue, Fenhu Economic Development Zone",
        "phone_number": "0512-63263679",
        "score": "4,6",
        "business_hours": "11:00-22:00, du lundi au dimanche",
        "dishes": "Sushi au saumon"
    },
    {
        "name": "Restaurant Zhou Zhuang Hua Jian Tang Jie Geng",
        "area": "Kunshan",
        "cuisine": "Jiangsu-Zhejiang",
        "pricerange": "modérée",
        "metro_station": "false",
        "per_capita_consumption": "98 yuans",
        "address": "10 mètres au nord du site touristique de la rue Zhongshi n° 110, dans la ville de Zhouzhuang",
        "phone_number": "138-1289-9961",
        "score": "4,5",
        "business_hours": "07:00-20:30, du lundi au dimanche",
        "dishes": "blanchaille frite avec des oeufs brouillés"
    },
    {
        "name": "restaurant Xiewang",
        "area": "Changshu",
        "cuisine": "Jiangsu-Zhejiang",
        "pricerange": "bon marché",
        "metro_station": "false",
        "per_capita_consumption": "60 yuans",
        "address": "près du parking de la zone panoramique, route de Luweidang",
        "phone_number": "0512-52507977",
        "score": "4,8",
        "business_hours": "08:00-20:00, du lundi au dimanche",
        "dishes": "crabe poilu"
    }
]
